[
  {
    "id": "ag",
    "canton": "Aargau",
    "name": "Geissfluegrat",
    "height": 908.0,
    "long": 7.964565,
    "lat": 47.422806,
    "coords": "47° 25' 22'' N, 7° 57' 52'' E",
    "image": "ag.jpg"
  },
  {
    "id": "ap",
    "canton": "Appenzell",
    "name": "Säntis",
    "height": 2502.0,
    "long": 9.343241,
    "lat": "47.249424,",
    "coords": "47° 14' 57'' N, 09° 20' 36'' E",
    "image": "ap.jpg"
  },
  {
    "id": "be",
    "canton": "Bern",
    "name": "Finsteraarhorn",
    "height": 4274.0,
    "long": 8.12609,
    "lat": 46.537354,
    "coords": "46° 32' 14'' N, 8° 7' 34'' E",
    "image": "be.jpg"
  },
  {
    "id": "bl",
    "canton": "Basel-Landschaft",
    "name": "Hinteri Egg",
    "height": 1169.0,
    "long": 7.710833333333333,
    "lat": 47.3725,
    "coords": "47° 22' 21'' N, 7° 42' 39'' E",
    "image": "bl.jpg"
  },
  {
    "id": "bs",
    "canton": "Basel-Stadt",
    "name": "St. Chrischona",
    "height": 522.0,
    "long": 7.680197,
    "lat": 47.573105,
    "coords": "47° 34' 23'' N, 7° 40' 50'' E",
    "image": "bs.jpg"
  },
  {
    "id": "fr",
    "canton": "Freiburg",
    "name": "Vanil Noir",
    "height": 2389.0,
    "long": 7.14834,
    "lat": 46.52845,
    "coords": "46° 31' 43'' N, 7° 8' 54'' E",
    "image": "fr.jpg"
  },
  {
    "id": "ge",
    "canton": "Genf",
    "name": "Les Arales",
    "height": 517.0,
    "long": 6.309246,
    "lat": 46.248672,
    "coords": "46° 14' 54'' N, 6° 18' 32'' E.",
    "image": "ge.jpg"
  },
  {
    "id": "gl",
    "canton": "Glarus",
    "name": "Tödi",
    "height": 3570.3,
    "long": 8.921887,
    "lat": 46.810444,
    "coords": "46° 48' 40'' N, 8° 54' 53'' E",
    "image": "gl.jpg"
  },
  {
    "id": "gr",
    "canton": "Graubünden",
    "name": "Piz Bernina",
    "height": 4048.0,
    "long": 9.908059,
    "lat": 46.382355,
    "coords": "46° 22' 56'' N, 9° 54' 29'' E",
    "image": "gr.jpg"
  },
  {
    "id": "ju",
    "canton": "Jura",
    "name": "Mont Raimeux",
    "height": 1301.0,
    "long": 7.428874,
    "lat": 47.307198,
    "coords": "47° 17' 59'' N, 7° 25' 30.7'' E",
    "image": "ju.jpg"
  },
  {
    "id": "lu",
    "canton": "Luzern",
    "name": "Brienzer Rothorn",
    "height": 2348.0,
    "long": 8.046906,
    "lat": 46.787106,
    "coords": "46° 47' 14'' N, 8° 2' 49'' E",
    "image": "lu.jpg"
  },
  {
    "id": "ne",
    "canton": "Neuenburg",
    "name": "Chasseral Ouest",
    "height": 1553.0,
    "long": 7.035315,
    "lat": 47.121876,
    "coords": " 47° 7' 28'' N, 7° 2' 23'' E",
    "image": "ne.jpg"
  },
  {
    "id": "nw",
    "canton": "Nidwalden",
    "name": "Rotstöckli",
    "height": 2900.0,
    "long": 8.425766,
    "lat": 46.777584,
    "coords": "46° 46' 40'' N, 8° 25' 33'' E",
    "image": "nw.jpg"
  },
  {
    "id": "ow",
    "canton": "Obwalden ",
    "name": "Titlis",
    "height": 3238.0,
    "long": 8.437814,
    "lat": 46.772034,
    "coords": "46° 46' 20'' N, 8° 26' 16'' E",
    "image": "ow.jpg"
  },
  {
    "id": "sg",
    "canton": "Sankt Gallen",
    "name": "Ringelspitz",
    "height": 3247.0,
    "long": 9.343086,
    "lat": 46.898273,
    "coords": "46° 53' 59'' N, 9° 20' 39'' E",
    "image": "sg.jpg"
  },
  {
    "id": "sh",
    "canton": "Schaffhausen",
    "name": "Hagen",
    "height": 912.0,
    "long": 8.567608,
    "lat": 47.774918,
    "coords": "47° 46' 29'' N, 08° 34' 03'' E",
    "image": "sh.jpg"
  },
  {
    "id": "so",
    "canton": "Solothurn",
    "name": "Hasenmatt",
    "height": 1444.0,
    "long": 7.450936,
    "lat": 47.242168,
    "coords": "47° 14' 31'' N, 7° 27' 2'' E",
    "image": "so.jpg"
  },
  {
    "id": "sz",
    "canton": "Schwyz",
    "name": "Bös Fulen",
    "height": 2801.0,
    "long": 8.945704,
    "lat": 46.967159,
    "coords": "46° 58' 2'' N, 8° 56' 45'' E",
    "image": "sz.jpg"
  },
  {
    "id": "tg",
    "canton": "Thurgau",
    "name": "Groot",
    "height": 996.0,
    "long": 8.9664,
    "lat": 47.385456,
    "coords": "47° 23' 8'' N, 8° 57' 59'' E",
    "image": "tg.jpg"
  },
  {
    "id": "ti",
    "canton": "Tessin",
    "name": "Rheinwaldhorn",
    "height": 3402.0,
    "long": 9.040203,
    "lat": 46.493748,
    "coords": "46° 29' 37'' N, 9° 2' 24'' E",
    "image": "ti.jpg"
  },
  {
    "id": "ur",
    "canton": "Uri",
    "name": "Dammastock",
    "height": 3630.0,
    "long": 8.421094,
    "lat": "46.643452 ",
    "coords": "46° 38' 28'' N, 8° 25' 6'' E",
    "image": "ur.jpg"
  },
  {
    "id": "vd",
    "canton": "Waadt",
    "name": "Les Diablerets",
    "height": 3216.0,
    "long": 7.19037,
    "lat": 46.30442,
    "coords": "46° 20' 55'' N, 7° 9' 30'' E",
    "image": "vd.jpg"
  },
  {
    "id": "vs",
    "canton": "Wallis",
    "name": "Dufourspitze",
    "height": 4634.0,
    "long": 7.866757,
    "lat": 45.936924,
    "coords": "45° 56' 13'' N, 7° 52' 0'' E",
    "image": "vs.jpg"
  },
  {
    "id": "zg",
    "canton": "Zug",
    "name": "Wildspitz",
    "height": 1580.0,
    "long": 8.577614,
    "lat": 47.084488,
    "coords": "47° 5' 4'' N, 8° 34' 39'' E",
    "image": "zg.jpg"
  },
  {
    "id": "zh",
    "canton": "Zürich ",
    "name": "Schnebelhorn",
    "height": 1291.0,
    "long": 8.979639,
    "lat": 47.325607,
    "coords": "47° 19' 32'' N, 8° 58' 46'' E",
    "image": "zh.jpg"
  }
]